[
    {
        "name": "Big Foot",
        "type": "Humanoid",
        "classification": "Neutral",
        "location" : "North West America",
        "description": "Lorem Ipsum",
        "imageName": "big_foot",
        "coordinates": [
            {
                "latitude": 41.3237618,
                "longitude": -123.7062571
            },
            {
                "latitude": 43.2144411,
                "longitude": -122.6050701
            },
            {
                "latitude": 37.3000318,
                "longitude": -119.2320784
            },
            {
                "latitude": 39.4864891,
                "longitude": -122.8626840
            }
        ]
    },
    {
        "name": "Lockness Monster",
        "type": "Pre-historic",
        "classification": "Safe",
        "location" : "Lockness Lake, Scotland",
        "description": "Lorem Ipsum",
        "imageName": "nessie",
        "coordinates": [
            {
                "latitude": 43.48700,
                "longitude": 122.85168
            }
        ]
    },
    {
        "name": "Mothman",
        "type": "Humanoid",
        "classification": "Dangerous",
        "location" : "America",
        "description": "Lorem Ipsum",
        "imageName": "mothman",
        "coordinates": [
            {
                "latitude": 43.48700,
                "longitude": 122.85168
            }
        ]
    },
    {
        "name": "La Llorona",
        "type": "Spectre",
        "classification": "Dangerous",
        "location" : "Mexico",
        "description": "Lorem Ipsum",
        "imageName": "la_llorona",
        "coordinates": [
            {
                "latitude": 43.48700,
                "longitude": 122.85168
            }
        ]
    },
    {
        "name": "Wendigo",
        "type": "Humanoid",
        "classification": "Dangerous",
        "location" : "America",
        "description": "Lorem Ipsum",
        "imageName": "wendigo",
        "coordinates": [
            {
                "latitude": 43.48700,
                "longitude": 122.85168
            }
        ]
    },
    {
        "name": "Teke Teke",
        "type": "Spectre",
        "classification": "Dangerous",
        "location" : "Japan",
        "description": "Lorem Ipsum",
        "imageName": "teketeke",
        "coordinates": [
            {
                "latitude": 43.48700,
                "longitude": 122.85168
            }
        ]
    },
    {
        "name": "Devil's Footprint",
        "type": "Phenomenon",
        "classification": "Safe",
        "location" : "England",
        "description": "Lorem Ipsum",
        "imageName": "devil_prints",
        "coordinates": [
            {
                "latitude": 43.48700,
                "longitude": 122.85168
            }
        ]
    },
    {
        "name": "Chupacabra",
        "type": "Beast",
        "classification": "Neutral",
        "location" : "Somewhere",
        "description": "Lorem Ipsum",
        "imageName": "chupacabra",
        "coordinates": [
            {
                "latitude": 43.48700,
                "longitude": 122.85168
            }
        ]
    }
]
