[
    {
        "name": "Big Foot",
        "type": "Humanoid",
        "classification": "Neutral",
        "location" : "North West America",
        "description":
            "   Lorem ipsum dolor sit amet, consectetur adipiscing elit. Sed varius orci sit amet elit elementum tempor. Proin ut condimentum tellus. Vivamus porttitor libero nec turpis pulvinar, ac congue quam venenatis. Nam ut pulvinar nibh, ut molestie magna. Interdum et malesuada fames ac ante ipsum primis in faucibus. Phasellus ultricies condimentum lorem, fermentum tempus odio blandit sed. Vestibulum eu neque vel odio fringilla imperdiet nec in massa. Praesent rhoncus quis ligula hendrerit dignissim. Phasellus sodales ac magna sit amet tempus. Phasellus consequat magna aliquam eros placerat, sit amet ullamcorper turpis pretium. Nam feugiat bibendum molestie. In pretium urna ligula, eget auctor ligula mollis sed",
        "imageName": [
            "big_foot",
            "big_foot_2",
            "big_foot_3"
        ],
        "mapZoom": 11,
        "coordinates": [
            {
                "latitude": 41.3237618,
                "longitude": -123.0062571,
                "area" : 100000
            },
            {
                "latitude": 43.2144411,
                "longitude": -122.6050701,
                "area" : 50000
            },
            {
                "latitude": 42,
                "longitude": -119.2320784,
                "area" : 90000
            },
            {
                "latitude": 39.4864891,
                "longitude": -122.8626840,
                "area" : 80000
            }
        ]
    },
    {
        "name": "Chupacabra",
        "type": "Beast",
        "classification": "Neutral",
        "location" : "Moca, Puerto Rico",
        "description": "Lorem Ipsum",
        "imageName": [
            "chupacabra",
            "chupacabra_2",
            "chupacabra_3",
            "chupacabra_4"
        ],
        "mapZoom": 1,
        "coordinates": [
            {
                "latitude": 18.248212,
                "longitude": -66.873499,
                "area" : 9500
            },
            {
                "latitude": 18.397223,
                "longitude": -67.118655,
                "area" : 10000
            },
            {
                "latitude": 18.046150,
                "longitude": -67.028369,
                "area" : 8000
            }
        ]
    },
    {
        "name": "Loch Ness Monster",
        "type": "Pre-historic",
        "classification": "Safe",
        "location" : "Loch Ness, Scotland",
        "description": "Lorem Ipsum",
        "imageName": [
            "nessie",
            "nessie_2"
        ],
        "mapZoom": 1,
        "coordinates": [
            {
                "latitude": 57.280694,
                "longitude": -4.479236,
                "area" : 5000
            },
            {
                "latitude": 57.375501,
                "longitude": -4.362304,
                "area" : 3000
            }
        ]
    },
    {
        "name": "Kisaragi Station",
        "type": "Place",
        "classification": "Dangerous",
        "location" : "Japan",
        "description": "Lorem Ipsum",
        "imageName": ["kisaragi"],
        "mapZoom": 1,
        "coordinates": [
            {
                "latitude": 43.48700,
                "longitude": 122.85168,
                "area" : 100000
            }
        ]
    },
    {
        "name": "La Llorona",
        "type": "Ghost",
        "classification": "Dangerous",
        "location" : "Mexico",
        "description": "Lorem Ipsum",
        "imageName": [
            "la_llorona",
            "la_llorona_2"
        ],
        "mapZoom": 1,
        "coordinates": [
            {
                "latitude": 43.48700,
                "longitude": 122.85168,
                "area" : 100000
            }
        ]
    },
    {
        "name": "Wendigo",
        "type": "Humanoid",
        "classification": "Dangerous",
        "location" : "America",
        "description": "Lorem Ipsum",
        "imageName": [
            "wendigo",
            "wendigo_2",
            "wendigo_3"
        ],
        "mapZoom": 1,
        "coordinates": [
            {
                "latitude": 43.48700,
                "longitude": 122.85168,
                "area" : 100000
            }
        ]
    },
    {
        "name": "Teke Teke",
        "type": "Ghost",
        "classification": "Dangerous",
        "location" : "Japan",
        "description": "Lorem Ipsum",
        "imageName": [
            "teketeke",
            "teketeke_2"
        ],
        "mapZoom": 1,
        "coordinates": [
            {
                "latitude": 43.48700,
                "longitude": 122.85168,
                "area" : 100000
            }
        ]
    }
]
